 [{
			        "lon" : 116.3366681445,
					"lat" : 40.0090994814,
			        "title":"苏市民书院",
			        "subtitle":"清华大学 约565米",
			        "customID":"1"
			    },{
			        "lon" : 116.3328027632,
					"lat" : 40.0130509160,
			        "title":"北京清华大学",
			        "subtitle":"中国北京市北京市海淀区",
			        "customID":"2"
			    },{
			        "lon" : 116.3224141276,
					"lat" : 40.0090266749,
			        "title":"北京清华大学医院",
			        "subtitle":"清华大学医院 约37米",
			        "customID":"3"
			    },
			    {
			        "lon" : 116.3328027632,
					"lat" : 40.0090994814,
			        "title":"水魔社区",
			        "subtitle":"北京市海淀区燕园街道燕东园西北方向",
			        "customID":"4"
			    },{
			        "lon" : 116.3293020403,
					"lat" : 40.0087801228,
			        "title":"水木清华",
			        "subtitle":"北京市海淀区清华园街道西北方向",
			        "customID":"5"
			    },{
			        "lon" : 116.3206342452,
					"lat" : 40.0038147047,
			        "title":"北大博雅国际酒店",
			        "subtitle":"北京市海淀区燕园街道校内社区东北方向",
			        "customID":"6"
			    },{
			        "lon" : 116.3268773234,
					"lat" : 40.0042762810,
			        "title":"清华园住宅小区",
			        "subtitle":"北京市海淀区燕园街道燕东园东北方向",
			        "customID":"7"
			    },{
			        "lon" : 116.3235299265,
					"lat" : 40.0034379419,
			        "title":"阿隆重庆火锅",
			        "subtitle":"燕东园北区约113米",
			        "customID":"8"
			    },{
			        "lon" : 116.3267914927,
					"lat" : 40.0014489000,
			        "title":"燕东幼儿园",
			        "subtitle":"北京市海淀区燕园街道燕东园东南方向",
			        "customID":"9"
			    },{
			        "lon" : 116.3244765390,
					"lat" : 40.0007753675,
			        "title":"北京大学附属小学",
			        "subtitle":"中国北京市北京市海淀区颐和园路5号",
			        "customID":"10"
			    },{
			        "lon" : 116.3234894861,
					"lat" : 39.9988191265,
			        "title":"北京大学物理学院",
			        "subtitle":"中国北京市北京市海淀区成府路209号",
			        "customID":"11"
			    }]
